header:
  stamp:
    sec: 313
    nanosec: 909000000
  frame_id: base_link
orientation:
  x: 7.904392296050914e-06
  y: 4.5359533293663425e-06
  z: -0.0819557347544619
  w: 0.9966359703812633
orientation_covariance:
- 0.0
- 0.0
- 0.0
- 0.0
- 0.0
- 0.0
- 0.0
- 0.0
- 0.0
angular_velocity:
  x: 0.014864190482750575
  y: 0.010190889037214879
  z: -0.0019479380077004334
angular_velocity_covariance:
- 0.0
- 0.0
- 0.0
- 0.0
- 0.0
- 0.0
- 0.0
- 0.0
- 0.0
linear_acceleration:
  x: 0.109152787531376
  y: -0.12467396628634711
  z: 10.885363614612464
linear_acceleration_covariance:
- 0.0
- 0.0
- 0.0
- 0.0
- 0.0
- 0.0
- 0.0
- 0.0
- 0.0
---
header:
  stamp:
    sec: 313
    nanosec: 914000000
  frame_id: base_link
orientation:
  x: 7.903983588160815e-06
  y: 4.535461391850656e-06
  z: -0.08196295481256032
  w: 0.9966353766324728
orientation_covariance:
- 0.0
- 0.0
- 0.0
- 0.0
- 0.0
- 0.0
- 0.0
- 0.0
- 0.0
angular_velocity:
  x: 0.014862907545798512
  y: 0.010189731671016673
  z: -0.0019478753842190636
angular_velocity_covariance:
- 0.0
- 0.0
- 0.0
- 0.0
- 0.0
- 0.0
- 0.0
- 0.0
- 0.0
linear_acceleration:
  x: -8.081184912255713e-05
  y: 0.00019908514377526182
  z: 9.800015138015194
linear_acceleration_covariance:
- 0.0
- 0.0
- 0.0
- 0.0
- 0.0
- 0.0
- 0.0
- 0.0
- 0.0
---
header:
  stamp:
    sec: 313
    nanosec: 919000000
  frame_id: base_link
orientation:
  x: -4.471615838352203e-06
  y: -6.621256539397595e-06
  z: -0.08196819687489063
  w: 0.9966349455228042
orientation_covariance:
- 0.0
- 0.0
- 0.0
- 0.0
- 0.0
- 0.0
- 0.0
- 0.0
- 0.0
angular_velocity:
  x: -0.02283854095862475
  y: -0.024266703733305778
  z: -0.003274561198480259
angular_velocity_covariance:
- 0.0
- 0.0
- 0.0
- 0.0
- 0.0
- 0.0
- 0.0
- 0.0
- 0.0
linear_acceleration:
  x: -0.1364231702384225
  y: 0.15599967114902383
  z: 8.443379731131623
linear_acceleration_covariance:
- 0.0
- 0.0
- 0.0
- 0.0
- 0.0
- 0.0
- 0.0
- 0.0
- 0.0
---
header:
  stamp:
    sec: 313
    nanosec: 924000000
  frame_id: base_link
orientation:
  x: -4.468048689903638e-06
  y: -6.622818621530733e-06
  z: -0.0819754177266698
  w: 0.9966343516178403
orientation_covariance:
- 0.0
- 0.0
- 0.0
- 0.0
- 0.0
- 0.0
- 0.0
- 0.0
- 0.0
angular_velocity:
  x: 0.007972919258056498
  y: 0.014078983509706261
  z: -0.0020226335905197046
angular_velocity_covariance:
- 0.0
- 0.0
- 0.0
- 0.0
- 0.0
- 0.0
- 0.0
- 0.0
- 0.0
linear_acceleration:
  x: 0.15171519219241722
  y: -0.1338512708180681
  z: 12.353810520688874
linear_acceleration_covariance:
- 0.0
- 0.0
- 0.0
- 0.0
- 0.0
- 0.0
- 0.0
- 0.0
- 0.0
---
header:
  stamp:
    sec: 313
    nanosec: 929000000
  frame_id: base_link
orientation:
  x: 7.903047673950695e-06
  y: 4.534277713014786e-06
  z: -0.08198100755894011
  w: 0.9966338918161489
orientation_covariance:
- 0.0
- 0.0
- 0.0
- 0.0
- 0.0
- 0.0
- 0.0
- 0.0
- 0.0
angular_velocity:
  x: 0.007966090071413582
  y: 0.014081696708526378
  z: -0.002023624210680694
angular_velocity_covariance:
- 0.0
- 0.0
- 0.0
- 0.0
- 0.0
- 0.0
- 0.0
- 0.0
- 0.0
linear_acceleration:
  x: -6.399415332873607e-05
  y: 0.00022975294678231724
  z: 9.799955892271713
linear_acceleration_covariance:
- 0.0
- 0.0
- 0.0
- 0.0
- 0.0
- 0.0
- 0.0
- 0.0
- 0.0
---
header:
  stamp:
    sec: 313
    nanosec: 934000000
  frame_id: base_link
orientation:
  x: -4.462796177549893e-06
  y: -6.625098092626838e-06
  z: -0.08198625007301603
  w: 0.996633460573724
orientation_covariance:
- 0.0
- 0.0
- 0.0
- 0.0
- 0.0
- 0.0
- 0.0
- 0.0
- 0.0
angular_velocity:
  x: -0.022818265968971747
  y: -0.02427084636287165
  z: -0.0032740363988387196
angular_velocity_covariance:
- 0.0
- 0.0
- 0.0
- 0.0
- 0.0
- 0.0
- 0.0
- 0.0
- 0.0
linear_acceleration:
  x: -0.12111668480551399
  y: 0.10691950405909567
  z: 7.757085160253859
linear_acceleration_covariance:
- 0.0
- 0.0
- 0.0
- 0.0
- 0.0
- 0.0
- 0.0
- 0.0
- 0.0
---
header:
  stamp:
    sec: 313
    nanosec: 939000000
  frame_id: base_link
orientation:
  x: 7.902545890539244e-06
  y: 4.533599865397932e-06
  z: -0.08199184088087819
  w: 0.9966330006306039
orientation_covariance:
- 0.0
- 0.0
- 0.0
- 0.0
- 0.0
- 0.0
- 0.0
- 0.0
- 0.0
angular_velocity:
  x: 0.014858093707802042
  y: 0.010185303452400459
  z: -0.00194755868339007
angular_velocity_covariance:
- 0.0
- 0.0
- 0.0
- 0.0
- 0.0
- 0.0
- 0.0
- 0.0
- 0.0
linear_acceleration:
  x: 0.10916144045314483
  y: -0.12452207948325561
  z: 10.885294764584023
linear_acceleration_covariance:
- 0.0
- 0.0
- 0.0
- 0.0
- 0.0
- 0.0
- 0.0
- 0.0
- 0.0
---
header:
  stamp:
    sec: 313
    nanosec: 944000000
  frame_id: base_link
orientation:
  x: 8.11860595597163e-08
  y: 6.727511539455907e-08
  z: -0.08199809308373249
  w: 0.9966324862910203
orientation_covariance:
- 0.0
- 0.0
- 0.0
- 0.0
- 0.0
- 0.0
- 0.0
- 0.0
- 0.0
angular_velocity:
  x: 0.007949300414217703
  y: 0.014088429565875827
  z: -0.002025574310290989
angular_velocity_covariance:
- 0.0
- 0.0
- 0.0
- 0.0
- 0.0
- 0.0
- 0.0
- 0.0
- 0.0
linear_acceleration:
  x: 0.012058121099459198
  y: 0.0179502075169068
  z: 10.757500320290985
linear_acceleration_covariance:
- 0.0
- 0.0
- 0.0
- 0.0
- 0.0
- 0.0
- 0.0
- 0.0
- 0.0
---
header:
  stamp:
    sec: 313
    nanosec: 949000000
  frame_id: base_link
orientation:
  x: -4.454315326790381e-06
  y: -6.628721126344753e-06
  z: -0.08200430665502181
  w: 0.9966319750169811
orientation_covariance:
- 0.0
- 0.0
- 0.0
- 0.0
- 0.0
- 0.0
- 0.0
- 0.0
- 0.0
angular_velocity:
  x: -0.022798940746301753
  y: -0.02427476467576996
  z: -0.003273527984716675
angular_velocity_covariance:
- 0.0
- 0.0
- 0.0
- 0.0
- 0.0
- 0.0
- 0.0
- 0.0
- 0.0
linear_acceleration:
  x: -0.12117531971825377
  y: 0.10674937645045858
  z: 7.757289327088203
linear_acceleration_covariance:
- 0.0
- 0.0
- 0.0
- 0.0
- 0.0
- 0.0
- 0.0
- 0.0
- 0.0
---
header:
  stamp:
    sec: 313
    nanosec: 954000000
  frame_id: base_link
orientation:
  x: 7.901810958540896e-06
  y: 4.5325254822837e-06
  z: -0.0820098989751648
  w: 0.996631514847439
orientation_covariance:
- 0.0
- 0.0
- 0.0
- 0.0
- 0.0
- 0.0
- 0.0
- 0.0
- 0.0
angular_velocity:
  x: 0.014855354969500356
  y: 0.010182706684812366
  z: -0.001947310690569677
angular_velocity_covariance:
- 0.0
- 0.0
- 0.0
- 0.0
- 0.0
- 0.0
- 0.0
- 0.0
- 0.0
linear_acceleration:
  x: 0.1091652048075544
  y: -0.12445214146253784
  z: 10.88526278245635
linear_acceleration_covariance:
- 0.0
- 0.0
- 0.0
- 0.0
- 0.0
- 0.0
- 0.0
- 0.0
- 0.0
---
header:
  stamp:
    sec: 313
    nanosec: 959000000
  frame_id: base_link
orientation:
  x: 8.18474122577851e-08
  y: 6.752856864189102e-08
  z: -0.08201615251299535
  w: 0.9966310002839336
orientation_covariance:
- 0.0
- 0.0
- 0.0
- 0.0
- 0.0
- 0.0
- 0.0
- 0.0
- 0.0
angular_velocity:
  x: 0.007933270826421942
  y: 0.01409478053986589
  z: -0.002027537816499041
angular_velocity_covariance:
- 0.0
- 0.0
- 0.0
- 0.0
- 0.0
- 0.0
- 0.0
- 0.0
- 0.0
linear_acceleration:
  x: 0.01210615327529281
  y: 0.01804011804795468
  z: 10.757328358976466
linear_acceleration_covariance:
- 0.0
- 0.0
- 0.0
- 0.0
- 0.0
- 0.0
- 0.0
- 0.0
- 0.0
---
header:
  stamp:
    sec: 313
    nanosec: 964000000
  frame_id: base_link
orientation:
  x: -4.4461942381711815e-06
  y: -6.632114136854673e-06
  z: -0.08202236628739601
  w: 0.996630488879837
orientation_covariance:
- 0.0
- 0.0
- 0.0
- 0.0
- 0.0
- 0.0
- 0.0
- 0.0
- 0.0
angular_velocity:
  x: -0.022780613446469797
  y: -0.024278443586686592
  z: -0.003273038420835089
angular_velocity_covariance:
- 0.0
- 0.0
- 0.0
- 0.0
- 0.0
- 0.0
- 0.0
- 0.0
- 0.0
linear_acceleration:
  x: -0.12123086727444815
  y: 0.10658704079375872
  z: 7.757491263804782
linear_acceleration_covariance:
- 0.0
- 0.0
- 0.0
- 0.0
- 0.0
- 0.0
- 0.0
- 0.0
- 0.0
---
header:
  stamp:
    sec: 313
    nanosec: 969000000
  frame_id: base_link
orientation:
  x: 7.901204686654603e-06
  y: 4.531521950006041e-06
  z: -0.08202795997614412
  w: 0.9966300284956242
orientation_covariance:
- 0.0
- 0.0
- 0.0
- 0.0
- 0.0
- 0.0
- 0.0
- 0.0
- 0.0
angular_velocity:
  x: 0.014852834120525096
  y: 0.010180247841916443
  z: -0.0019470257304276184
angular_velocity_covariance:
- 0.0
- 0.0
- 0.0
- 0.0
- 0.0
- 0.0
- 0.0
- 0.0
- 0.0
linear_acceleration:
  x: 0.10916850532544706
  y: -0.12438647642848093
  z: 10.885233456844997
linear_acceleration_covariance:
- 0.0
- 0.0
- 0.0
- 0.0
- 0.0
- 0.0
- 0.0
- 0.0
- 0.0
---
header:
  stamp:
    sec: 313
    nanosec: 974000000
  frame_id: base_link
orientation:
  x: 8.252232303400011e-08
  y: 6.779287676616322e-08
  z: -0.08203421473233886
  w: 0.9966295137177291
orientation_covariance:
- 0.0
- 0.0
- 0.0
- 0.0
- 0.0
- 0.0
- 0.0
- 0.0
- 0.0
angular_velocity:
  x: 0.007918046370541365
  y: 0.014100744200468633
  z: -0.002029382593952545
angular_velocity_covariance:
- 0.0
- 0.0
- 0.0
- 0.0
- 0.0
- 0.0
- 0.0
- 0.0
- 0.0
linear_acceleration:
  x: 0.012151364246580858
  y: 0.018125966921337968
  z: 10.757157253545355
linear_acceleration_covariance:
- 0.0
- 0.0
- 0.0
- 0.0
- 0.0
- 0.0
- 0.0
- 0.0
- 0.0
---
header:
  stamp:
    sec: 313
    nanosec: 979000000
  frame_id: base_link
orientation:
  x: -4.438452997935161e-06
  y: -6.635266274824534e-06
  z: -0.08204042863409063
  w: 0.9966290021897858
orientation_covariance:
- 0.0
- 0.0
- 0.0
- 0.0
- 0.0
- 0.0
- 0.0
- 0.0
- 0.0
angular_velocity:
  x: -0.02276332974026455
  y: -0.02428186875925667
  z: -0.003272569392401153
angular_velocity_covariance:
- 0.0
- 0.0
- 0.0
- 0.0
- 0.0
- 0.0
- 0.0
- 0.0
- 0.0
linear_acceleration:
  x: -0.12128328002212731
  y: 0.10643280929871754
  z: 7.757689457087137
linear_acceleration_covariance:
- 0.0
- 0.0
- 0.0
- 0.0
- 0.0
- 0.0
- 0.0
- 0.0
- 0.0
---
header:
  stamp:
    sec: 313
    nanosec: 984000000
  frame_id: base_link
orientation:
  x: 7.900729005122608e-06
  y: 4.530591004976476e-06
  z: -0.08204602354523616
  w: 0.9966285416028717
orientation_covariance:
- 0.0
- 0.0
- 0.0
- 0.0
- 0.0
- 0.0
- 0.0
- 0.0
- 0.0
angular_velocity:
  x: 0.014850539197052367
  y: 0.01017793198618576
  z: -0.0019467045056635194
angular_velocity_covariance:
- 0.0
- 0.0
- 0.0
- 0.0
- 0.0
- 0.0
- 0.0
- 0.0
- 0.0
linear_acceleration:
  x: 0.10917131245010016
  y: -0.1243252485611089
  z: 10.885207020108025
linear_acceleration_covariance:
- 0.0
- 0.0
- 0.0
- 0.0
- 0.0
- 0.0
- 0.0
- 0.0
- 0.0
---
header:
  stamp:
    sec: 313
    nanosec: 989000000
  frame_id: base_link
orientation:
  x: 8.320847256759636e-08
  y: 6.80675694782433e-08
  z: -0.08205227940100768
  w: 0.9966280266203071
orientation_covariance:
- 0.0
- 0.0
- 0.0
- 0.0
- 0.0
- 0.0
- 0.0
- 0.0
- 0.0
angular_velocity:
  x: 0.00790366311511346
  y: 0.014106301693459986
  z: -0.002031104629408139
angular_velocity_covariance:
- 0.0
- 0.0
- 0.0
- 0.0
- 0.0
- 0.0
- 0.0
- 0.0
- 0.0
linear_acceleration:
  x: 0.012193632084227447
  y: 0.01820756818514488
  z: 10.756987226941344
linear_acceleration_covariance:
- 0.0
- 0.0
- 0.0
- 0.0
- 0.0
- 0.0
- 0.0
- 0.0
- 0.0
---
header:
  stamp:
    sec: 313
    nanosec: 994000000
  frame_id: base_link
orientation:
  x: -4.431110698291848e-06
  y: -6.638167413911962e-06
  z: -0.08205849335442182
  w: 0.9966275149747283
orientation_covariance:
- 0.0
- 0.0
- 0.0
- 0.0
- 0.0
- 0.0
- 0.0
- 0.0
- 0.0
angular_velocity:
  x: -0.022747132533695563
  y: -0.02428502671244356
  z: -0.0032721222953102673
angular_velocity_covariance:
- 0.0
- 0.0
- 0.0
- 0.0
- 0.0
- 0.0
- 0.0
- 0.0
- 0.0
linear_acceleration:
  x: -0.12133239970983727
  y: 0.10628705065547561
  z: 7.757883464177864
linear_acceleration_covariance:
- 0.0
- 0.0
- 0.0
- 0.0
- 0.0
- 0.0
- 0.0
- 0.0
- 0.0
---
header:
  stamp:
    sec: 313
    nanosec: 999000000
  frame_id: base_link
orientation:
  x: 7.900385493283374e-06
  y: 4.529734196671988e-06
  z: -0.08206408933917117
  w: 0.996627054197305
orientation_covariance:
- 0.0
- 0.0
- 0.0
- 0.0
- 0.0
- 0.0
- 0.0
- 0.0
- 0.0
angular_velocity:
  x: 0.014848477725112996
  y: 0.010175763846250348
  z: -0.0019463476438063045
angular_velocity_covariance:
- 0.0
- 0.0
- 0.0
- 0.0
- 0.0
- 0.0
- 0.0
- 0.0
- 0.0
linear_acceleration:
  x: 0.1091736005675599
  y: -0.12426861428587972
  z: 10.885183690976401
linear_acceleration_covariance:
- 0.0
- 0.0
- 0.0
- 0.0
- 0.0
- 0.0
- 0.0
- 0.0
- 0.0
---
header:
  stamp:
    sec: 314
    nanosec: 4000000
  frame_id: base_link
orientation:
  x: 7.900285382532827e-06
  y: 4.529412542222438e-06
  z: -0.08207131620194977
  w: 0.9966264590978657
orientation_covariance:
- 0.0
- 0.0
- 0.0
- 0.0
- 0.0
- 0.0
- 0.0
- 0.0
- 0.0
angular_velocity:
  x: 0.007890147943166847
  y: 0.014111420604580522
  z: -0.00203282939946925
angular_velocity_covariance:
- 0.0
- 0.0
- 0.0
- 0.0
- 0.0
- 0.0
- 0.0
- 0.0
- 0.0
linear_acceleration:
  x: 0.012123237774073412
  y: 0.01844440289623289
  z: 10.756817298661373
linear_acceleration_covariance:
- 0.0
- 0.0
- 0.0
- 0.0
- 0.0
- 0.0
- 0.0
- 0.0
- 0.0
---
header:
  stamp:
    sec: 314
    nanosec: 9000000
  frame_id: base_link
orientation:
  x: -4.424185312208099e-06
  y: -6.640808220908837e-06
  z: -0.08207656010301655
  w: 0.996626027262976
orientation_covariance:
- 0.0
- 0.0
- 0.0
- 0.0
- 0.0
- 0.0
- 0.0
- 0.0
- 0.0
angular_velocity:
  x: -0.022732061700482194
  y: -0.024287904928643904
  z: -0.0032716983878721823
angular_velocity_covariance:
- 0.0
- 0.0
- 0.0
- 0.0
- 0.0
- 0.0
- 0.0
- 0.0
- 0.0
linear_acceleration:
  x: -0.12137795764188243
  y: 0.1061501908821975
  z: 7.758073912701807
linear_acceleration_covariance:
- 0.0
- 0.0
- 0.0
- 0.0
- 0.0
- 0.0
- 0.0
- 0.0
- 0.0
---
header:
  stamp:
    sec: 314
    nanosec: 14000000
  frame_id: base_link
orientation:
  x: 7.900175377007688e-06
  y: 4.5289528823353845e-06
  z: -0.08208215701024606
  w: 0.9966255663074378
orientation_covariance:
- 0.0
- 0.0
- 0.0
- 0.0
- 0.0
- 0.0
- 0.0
- 0.0
- 0.0
angular_velocity:
  x: 0.014846656677404453
  y: 0.010173747790971854
  z: -0.0019459557951418721
angular_velocity_covariance:
- 0.0
- 0.0
- 0.0
- 0.0
- 0.0
- 0.0
- 0.0
- 0.0
- 0.0
linear_acceleration:
  x: 0.10917534709668276
  y: -0.12421671846681609
  z: 10.885163672502141
linear_acceleration_covariance:
- 0.0
- 0.0
- 0.0
- 0.0
- 0.0
- 0.0
- 0.0
- 0.0
- 0.0
---
header:
  stamp:
    sec: 314
    nanosec: 19000000
  frame_id: base_link
orientation:
  x: 8.460485541916024e-08
  y: 6.864603921574455e-08
  z: -0.08208841470042509
  w: 0.9966250509454192
orientation_covariance:
- 0.0
- 0.0
- 0.0
- 0.0
- 0.0
- 0.0
- 0.0
- 0.0
- 0.0
angular_velocity:
  x: 0.007877552265782652
  y: 0.014116129204442569
  z: -0.0020341657548130095
angular_velocity_covariance:
- 0.0
- 0.0
- 0.0
- 0.0
- 0.0
- 0.0
- 0.0
- 0.0
- 0.0
linear_acceleration:
  x: 0.012268900834849682
  y: 0.018357342484171816
  z: 10.756651241147159
linear_acceleration_covariance:
- 0.0
- 0.0
- 0.0
- 0.0
- 0.0
- 0.0
- 0.0
- 0.0
- 0.0
---
header:
  stamp:
    sec: 314
    nanosec: 24000000
  frame_id: base_link
orientation:
  x: -4.417693572045786e-06
  y: -6.643180223021328e-06
  z: -0.08209462853041262
  w: 0.9966245390832025
orientation_covariance:
- 0.0
- 0.0
- 0.0
- 0.0
- 0.0
- 0.0
- 0.0
- 0.0
- 0.0
angular_velocity:
  x: -0.022718153828561544
  y: -0.02429049195760772
  z: -0.0032712988252515426
angular_velocity_covariance:
- 0.0
- 0.0
- 0.0
- 0.0
- 0.0
- 0.0
- 0.0
- 0.0
- 0.0
linear_acceleration:
  x: -0.12142017937114276
  y: 0.10602229848149974
  z: 7.758257290095047
linear_acceleration_covariance:
- 0.0
- 0.0
- 0.0
- 0.0
- 0.0
- 0.0
- 0.0
- 0.0
- 0.0
---
header:
  stamp:
    sec: 314
    nanosec: 29000000
  frame_id: base_link
orientation:
  x: -4.415221789151513e-06
  y: -6.644052035034993e-06
  z: -0.0821018562925076
  w: 0.9966239436867282
orientation_covariance:
- 0.0
- 0.0
- 0.0
- 0.0
- 0.0
- 0.0
- 0.0
- 0.0
- 0.0
angular_velocity:
  x: 0.01484500190036443
  y: 0.01017198055738307
  z: -0.0019456592280515277
angular_velocity_covariance:
- 0.0
- 0.0
- 0.0
- 0.0
- 0.0
- 0.0
- 0.0
- 0.0
- 0.0
linear_acceleration:
  x: 0.1094415308210098
  y: -0.12441637987482031
  z: 10.88514400875713
linear_acceleration_covariance:
- 0.0
- 0.0
- 0.0
- 0.0
- 0.0
- 0.0
- 0.0
- 0.0
- 0.0
---
header:
  stamp:
    sec: 314
    nanosec: 34000000
  frame_id: base_link
orientation:
  x: 7.900106914065982e-06
  y: 4.527988043637111e-06
  z: -0.08210745423363429
  w: 0.9966234825029748
orientation_covariance:
- 0.0
- 0.0
- 0.0
- 0.0
- 0.0
- 0.0
- 0.0
- 0.0
- 0.0
angular_velocity:
  x: 0.007865877182036095
  y: 0.01412035343146275
  z: -0.002035627975481565
angular_velocity_covariance:
- 0.0
- 0.0
- 0.0
- 0.0
- 0.0
- 0.0
- 0.0
- 0.0
- 0.0
linear_acceleration:
  x: 0.01219196707999078
  y: 0.018584637008971193
  z: 10.756482132011746
linear_acceleration_covariance:
- 0.0
- 0.0
- 0.0
- 0.0
- 0.0
- 0.0
- 0.0
- 0.0
- 0.0
---
header:
  stamp:
    sec: 314
    nanosec: 39000000
  frame_id: base_link
orientation:
  x: -4.411650853684955e-06
  y: -6.6452758705906e-06
  z: -0.08211269828383772
  w: 0.9966230504643795
orientation_covariance:
- 0.0
- 0.0
- 0.0
- 0.0
- 0.0
- 0.0
- 0.0
- 0.0
- 0.0
angular_velocity:
  x: -0.02270544198235404
  y: -0.024292777514095174
  z: -0.0032709246539691585
angular_velocity_covariance:
- 0.0
- 0.0
- 0.0
- 0.0
- 0.0
- 0.0
- 0.0
- 0.0
- 0.0
linear_acceleration:
  x: -0.1214584572634516
  y: 0.105903992588096
  z: 7.7584374185121945
linear_acceleration_covariance:
- 0.0
- 0.0
- 0.0
- 0.0
- 0.0
- 0.0
- 0.0
- 0.0
- 0.0
---
header:
  stamp:
    sec: 314
    nanosec: 44000000
  frame_id: base_link
orientation:
  x: -4.409362660071748e-06
  y: -6.646035244669361e-06
  z: -0.08211992647697555
  w: 0.9966224549004524
orientation_covariance:
- 0.0
- 0.0
- 0.0
- 0.0
- 0.0
- 0.0
- 0.0
- 0.0
- 0.0
angular_velocity:
  x: 0.014843680235044792
  y: 0.010170280183345032
  z: -0.0019451996995255639
angular_velocity_covariance:
- 0.0
- 0.0
- 0.0
- 0.0
- 0.0
- 0.0
- 0.0
- 0.0
- 0.0
linear_acceleration:
  x: 0.10944216097566965
  y: -0.1243742068936413
  z: 10.885131149287592
linear_acceleration_covariance:
- 0.0
- 0.0
- 0.0
- 0.0
- 0.0
- 0.0
- 0.0
- 0.0
- 0.0
---
header:
  stamp:
    sec: 314
    nanosec: 49000000
  frame_id: base_link
orientation:
  x: 8.601686933867896e-08
  y: 6.925953661333239e-08
  z: -0.08212455560206466
  w: 0.9966220734898216
orientation_covariance:
- 0.0
- 0.0
- 0.0
- 0.0
- 0.0
- 0.0
- 0.0
- 0.0
- 0.0
angular_velocity:
  x: 0.007855175005658268
  y: 0.014124139792404235
  z: -0.0020366953549610356
angular_velocity_covariance:
- 0.0
- 0.0
- 0.0
- 0.0
- 0.0
- 0.0
- 0.0
- 0.0
- 0.0
linear_acceleration:
  x: 0.01233100736821211
  y: 0.01848803072022315
  z: 10.75631957674088
linear_acceleration_covariance:
- 0.0
- 0.0
- 0.0
- 0.0
- 0.0
- 0.0
- 0.0
- 0.0
- 0.0
---
header:
  stamp:
    sec: 314
    nanosec: 54000000
  frame_id: base_link
orientation:
  x: -4.406071067985669e-06
  y: -6.647088594118338e-06
  z: -0.08213076900798634
  w: 0.9966215614357136
orientation_covariance:
- 0.0
- 0.0
- 0.0
- 0.0
- 0.0
- 0.0
- 0.0
- 0.0
- 0.0
angular_velocity:
  x: -0.022693955484918708
  y: -0.024294752567534474
  z: -0.003270576791728546
angular_velocity_covariance:
- 0.0
- 0.0
- 0.0
- 0.0
- 0.0
- 0.0
- 0.0
- 0.0
- 0.0
linear_acceleration:
  x: -0.12149316330896172
  y: 0.10579519987029766
  z: 7.758609821339229
linear_acceleration_covariance:
- 0.0
- 0.0
- 0.0
- 0.0
- 0.0
- 0.0
- 0.0
- 0.0
- 0.0
---
header:
  stamp:
    sec: 314
    nanosec: 59000000
  frame_id: base_link
orientation:
  x: 7.900352382664735e-06
  y: 4.527072502210894e-06
  z: -0.08213636775803229
  w: 0.9966211000217724
orientation_covariance:
- 0.0
- 0.0
- 0.0
- 0.0
- 0.0
- 0.0
- 0.0
- 0.0
- 0.0
angular_velocity:
  x: 0.014842696728401602
  y: 0.010168649961046855
  z: -0.0019445774843372895
angular_velocity_covariance:
- 0.0
- 0.0
- 0.0
- 0.0
- 0.0
- 0.0
- 0.0
- 0.0
- 0.0
linear_acceleration:
  x: 0.1091771552407218
  y: -0.1240907003433906
  z: 10.885125234483958
linear_acceleration_covariance:
- 0.0
- 0.0
- 0.0
- 0.0
- 0.0
- 0.0
- 0.0
- 0.0
- 0.0
---
header:
  stamp:
    sec: 314
    nanosec: 64000000
  frame_id: base_link
orientation:
  x: 8.672250819780606e-08
  y: 6.957792780954354e-08
  z: -0.08214262726356575
  w: 0.9966205841674285
orientation_covariance:
- 0.0
- 0.0
- 0.0
- 0.0
- 0.0
- 0.0
- 0.0
- 0.0
- 0.0
angular_velocity:
  x: 0.007845447450111337
  y: 0.014127432233512165
  z: -0.0020377544703586393
angular_velocity_covariance:
- 0.0
- 0.0
- 0.0
- 0.0
- 0.0
- 0.0
- 0.0
- 0.0
- 0.0
linear_acceleration:
  x: 0.012357259308376034
  y: 0.01854626317505447
  z: 10.756160141766507
linear_acceleration_covariance:
- 0.0
- 0.0
- 0.0
- 0.0
- 0.0
- 0.0
- 0.0
- 0.0
- 0.0
---
header:
  stamp:
    sec: 314
    nanosec: 69000000
  frame_id: base_link
orientation:
  x: -4.4009665603731355e-06
  y: -6.648612854502305e-06
  z: -0.08214884034574446
  w: 0.9966200720265856
orientation_covariance:
- 0.0
- 0.0
- 0.0
- 0.0
- 0.0
- 0.0
- 0.0
- 0.0
- 0.0
angular_velocity:
  x: -0.022683719721282677
  y: -0.024296409421870675
  z: -0.00327025600444631
angular_velocity_covariance:
- 0.0
- 0.0
- 0.0
- 0.0
- 0.0
- 0.0
- 0.0
- 0.0
- 0.0
linear_acceleration:
  x: -0.12152383728795192
  y: 0.10569639428008115
  z: 7.758777356646857
linear_acceleration_covariance:
- 0.0
- 0.0
- 0.0
- 0.0
- 0.0
- 0.0
- 0.0
- 0.0
- 0.0
---
header:
  stamp:
    sec: 314
    nanosec: 74000000
  frame_id: base_link
orientation:
  x: 7.90068109679905e-06
  y: 4.52660274922049e-06
  z: -0.0821544393977209
  w: 0.9966196104855329
orientation_covariance:
- 0.0
- 0.0
- 0.0
- 0.0
- 0.0
- 0.0
- 0.0
- 0.0
- 0.0
angular_velocity:
  x: 0.014841894766624246
  y: 0.010167277980797106
  z: -0.0019440529883975161
angular_velocity_covariance:
- 0.0
- 0.0
- 0.0
- 0.0
- 0.0
- 0.0
- 0.0
- 0.0
- 0.0
linear_acceleration:
  x: 0.1091765689607543
  y: -0.12405891985715592
  z: 10.885120107017196
linear_acceleration_covariance:
- 0.0
- 0.0
- 0.0
- 0.0
- 0.0
- 0.0
- 0.0
- 0.0
- 0.0
---
header:
  stamp:
    sec: 314
    nanosec: 79000000
  frame_id: base_link
orientation:
  x: 8.742461301338701e-08
  y: 6.9903253570185e-08
  z: -0.08216069925420084
  w: 0.9966190944879837
orientation_covariance:
- 0.0
- 0.0
- 0.0
- 0.0
- 0.0
- 0.0
- 0.0
- 0.0
- 0.0
angular_velocity:
  x: 0.007836719971089394
  y: 0.01413023617069334
  z: -0.0020386738975513583
angular_velocity_covariance:
- 0.0
- 0.0
- 0.0
- 0.0
- 0.0
- 0.0
- 0.0
- 0.0
- 0.0
linear_acceleration:
  x: 0.01237987466730582
  y: 0.018599248591267065
  z: 10.75600047068538
linear_acceleration_covariance:
- 0.0
- 0.0
- 0.0
- 0.0
- 0.0
- 0.0
- 0.0
- 0.0
- 0.0
---
header:
  stamp:
    sec: 314
    nanosec: 84000000
  frame_id: base_link
orientation:
  x: -4.39634802084805e-06
  y: -6.649844185719919e-06
  z: -0.08216691193883317
  w: 0.9966185822664997
orientation_covariance:
- 0.0
- 0.0
- 0.0
- 0.0
- 0.0
- 0.0
- 0.0
- 0.0
- 0.0
angular_velocity:
  x: -0.022674755966578804
  y: -0.0242977417841177
  z: -0.0032699628829413094
angular_velocity_covariance:
- 0.0
- 0.0
- 0.0
- 0.0
- 0.0
- 0.0
- 0.0
- 0.0
- 0.0
linear_acceleration:
  x: -0.12155051713571903
  y: 0.10560768470945202
  z: 7.7589387616299135
linear_acceleration_covariance:
- 0.0
- 0.0
- 0.0
- 0.0
- 0.0
- 0.0
- 0.0
- 0.0
- 0.0
---
header:
  stamp:
    sec: 314
    nanosec: 89000000
  frame_id: base_link
orientation:
  x: 7.90114412000843e-06
  y: 4.526212262955232e-06
  z: -0.08217251113536042
  w: 0.9966181206112974
orientation_covariance:
- 0.0
- 0.0
- 0.0
- 0.0
- 0.0
- 0.0
- 0.0
- 0.0
- 0.0
angular_velocity:
  x: 0.014841358562010451
  y: 0.010166073802371816
  z: -0.0019434972438016223
angular_velocity_covariance:
- 0.0
- 0.0
- 0.0
- 0.0
- 0.0
- 0.0
- 0.0
- 0.0
- 0.0
linear_acceleration:
  x: 0.10917537387405535
  y: -0.12403237892568926
  z: 10.885119003850358
linear_acceleration_covariance:
- 0.0
- 0.0
- 0.0
- 0.0
- 0.0
- 0.0
- 0.0
- 0.0
- 0.0
---
header:
  stamp:
    sec: 314
    nanosec: 94000000
  frame_id: base_link
orientation:
  x: 8.812077626840234e-08
  y: 7.023488391849262e-08
  z: -0.08217877121457536
  w: 0.9966176044811019
orientation_covariance:
- 0.0
- 0.0
- 0.0
- 0.0
- 0.0
- 0.0
- 0.0
- 0.0
- 0.0
angular_velocity:
  x: 0.007829007780594519
  y: 0.014132544007087914
  z: -0.0020394522437671265
angular_velocity_covariance:
- 0.0
- 0.0
- 0.0
- 0.0
- 0.0
- 0.0
- 0.0
- 0.0
- 0.0
linear_acceleration:
  x: 0.01239898299981096
  y: 0.01864710447427806
  z: 10.75584300065568
linear_acceleration_covariance:
- 0.0
- 0.0
- 0.0
- 0.0
- 0.0
- 0.0
- 0.0
- 0.0
- 0.0
---
header:
  stamp:
    sec: 314
    nanosec: 99000000
  frame_id: base_link
orientation:
  x: 8.839705202037933e-08
  y: 7.036915989957711e-08
  z: -0.08218599990972184
  w: 0.9966170083933078
orientation_covariance:
- 0.0
- 0.0
- 0.0
- 0.0
- 0.0
- 0.0
- 0.0
- 0.0
- 0.0
angular_velocity:
  x: -0.022666985462583455
  y: -0.024298816648720814
  z: -0.0032698280166743544
angular_velocity_covariance:
- 0.0
- 0.0
- 0.0
- 0.0
- 0.0
- 0.0
- 0.0
- 0.0
- 0.0
linear_acceleration:
  x: -0.1216831144501082
  y: 0.10558951848228955
  z: 7.759093400890835
linear_acceleration_covariance:
- 0.0
- 0.0
- 0.0
- 0.0
- 0.0
- 0.0
- 0.0
- 0.0
- 0.0
---
header:
  stamp:
    sec: 314
    nanosec: 104000000
  frame_id: base_link
orientation:
  x: 7.901740636123324e-06
  y: 4.525901182685575e-06
  z: -0.0821905826118219
  w: 0.996616630428676
orientation_covariance:
- 0.0
- 0.0
- 0.0
- 0.0
- 0.0
- 0.0
- 0.0
- 0.0
- 0.0
angular_velocity:
  x: 0.014841091072493814
  y: 0.010165039225689827
  z: -0.0019429109950668383
angular_velocity_covariance:
- 0.0
- 0.0
- 0.0
- 0.0
- 0.0
- 0.0
- 0.0
- 0.0
- 0.0
linear_acceleration:
  x: 0.10917366905233629
  y: -0.1240109430137293
  z: 10.885119913263855
linear_acceleration_covariance:
- 0.0
- 0.0
- 0.0
- 0.0
- 0.0
- 0.0
- 0.0
- 0.0
- 0.0
---
header:
  stamp:
    sec: 314
    nanosec: 109000000
  frame_id: base_link
orientation:
  x: 8.880866307419064e-08
  y: 7.057218779156376e-08
  z: -0.08219684278521448
  w: 0.9966161141764315
orientation_covariance:
- 0.0
- 0.0
- 0.0
- 0.0
- 0.0
- 0.0
- 0.0
- 0.0
- 0.0
angular_velocity:
  x: 0.007822322511383317
  y: 0.014134350105679271
  z: -0.002040088545662329
angular_velocity_covariance:
- 0.0
- 0.0
- 0.0
- 0.0
- 0.0
- 0.0
- 0.0
- 0.0
- 0.0
linear_acceleration:
  x: 0.012414549489905686
  y: 0.018689779546014487
  z: 10.755687809422001
linear_acceleration_covariance:
- 0.0
- 0.0
- 0.0
- 0.0
- 0.0
- 0.0
- 0.0
- 0.0
- 0.0
---
header:
  stamp:
    sec: 314
    nanosec: 114000000
  frame_id: base_link
orientation:
  x: -4.388602866390553e-06
  y: -6.651415760741703e-06
  z: -0.08220305445538918
  w: 0.9966156018118035
orientation_covariance:
- 0.0
- 0.0
- 0.0
- 0.0
- 0.0
- 0.0
- 0.0
- 0.0
- 0.0
angular_velocity:
  x: -0.0226607081955575
  y: -0.024299415205292663
  z: -0.003269461004316306
angular_velocity_covariance:
- 0.0
- 0.0
- 0.0
- 0.0
- 0.0
- 0.0
- 0.0
- 0.0
- 0.0
linear_acceleration:
  x: -0.12159163907757345
  y: 0.10546114265575601
  z: 7.759242536028788
linear_acceleration_covariance:
- 0.0
- 0.0
- 0.0
- 0.0
- 0.0
- 0.0
- 0.0
- 0.0
- 0.0
---
header:
  stamp:
    sec: 314
    nanosec: 119000000
  frame_id: base_link
orientation:
  x: 7.902469518597236e-06
  y: 4.525669443177224e-06
  z: -0.08220865346815512
  w: 0.9966151399672906
orientation_covariance:
- 0.0
- 0.0
- 0.0
- 0.0
- 0.0
- 0.0
- 0.0
- 0.0
- 0.0
angular_velocity:
  x: 0.014841094502202317
  y: 0.010164175573944924
  z: -0.001942294951477251
angular_velocity_covariance:
- 0.0
- 0.0
- 0.0
- 0.0
- 0.0
- 0.0
- 0.0
- 0.0
- 0.0
linear_acceleration:
  x: 0.10917114763513777
  y: -0.12399519912448224
  z: 10.88512913037671
linear_acceleration_covariance:
- 0.0
- 0.0
- 0.0
- 0.0
- 0.0
- 0.0
- 0.0
- 0.0
- 0.0
---
header:
  stamp:
    sec: 314
    nanosec: 124000000
  frame_id: base_link
orientation:
  x: 8.948603127951062e-08
  y: 7.091453843966214e-08
  z: -0.08221491360701254
  w: 0.9966146236036166
orientation_covariance:
- 0.0
- 0.0
- 0.0
- 0.0
- 0.0
- 0.0
- 0.0
- 0.0
- 0.0
angular_velocity:
  x: 0.007816672135972888
  y: 0.014135650834150915
  z: -0.0020405822712522962
angular_velocity_covariance:
- 0.0
- 0.0
- 0.0
- 0.0
- 0.0
- 0.0
- 0.0
- 0.0
- 0.0
linear_acceleration:
  x: 0.012426551836625083
  y: 0.018727243116236664
  z: 10.755534950698166
linear_acceleration_covariance:
- 0.0
- 0.0
- 0.0
- 0.0
- 0.0
- 0.0
- 0.0
- 0.0
- 0.0
---
header:
  stamp:
    sec: 314
    nanosec: 129000000
  frame_id: base_link
orientation:
  x: -4.385488706053654e-06
  y: -6.651752705282789e-06
  z: -0.0822211246612057
  w: 0.9966141111764212
orientation_covariance:
- 0.0
- 0.0
- 0.0
- 0.0
- 0.0
- 0.0
- 0.0
- 0.0
- 0.0
angular_velocity:
  x: -0.022655645024096206
  y: -0.024299751140787713
  z: -0.0032692523805446043
angular_velocity_covariance:
- 0.0
- 0.0
- 0.0
- 0.0
- 0.0
- 0.0
- 0.0
- 0.0
- 0.0
linear_acceleration:
  x: -0.12160599309977761
  y: 0.10540351253547588
  z: 7.75938470836504
linear_acceleration_covariance:
- 0.0
- 0.0
- 0.0
- 0.0
- 0.0
- 0.0
- 0.0
- 0.0
- 0.0
---
header:
  stamp:
    sec: 314
    nanosec: 134000000
  frame_id: base_link
orientation:
  x: 7.90332934308095e-06
  y: 4.525516777032364e-06
  z: -0.08222672334599831
  w: 0.9966136492567407
orientation_covariance:
- 0.0
- 0.0
- 0.0
- 0.0
- 0.0
- 0.0
- 0.0
- 0.0
- 0.0
angular_velocity:
  x: 0.014841370287965922
  y: 0.010163483686226495
  z: -0.001941649776401377
angular_velocity_covariance:
- 0.0
- 0.0
- 0.0
- 0.0
- 0.0
- 0.0
- 0.0
- 0.0
- 0.0
linear_acceleration:
  x: 0.10916812082042829
  y: -0.12398460745846575
  z: 10.88514042386349
linear_acceleration_covariance:
- 0.0
- 0.0
- 0.0
- 0.0
- 0.0
- 0.0
- 0.0
- 0.0
- 0.0
---
header:
  stamp:
    sec: 314
    nanosec: 139000000
  frame_id: base_link
orientation:
  x: 9.015075052897789e-08
  y: 7.126131878777452e-08
  z: -0.08223298332162565
  w: 0.9966131327922647
orientation_covariance:
- 0.0
- 0.0
- 0.0
- 0.0
- 0.0
- 0.0
- 0.0
- 0.0
- 0.0
angular_velocity:
  x: 0.007812060912875739
  y: 0.014136444593435198
  z: -0.0020409333199656156
angular_velocity_covariance:
- 0.0
- 0.0
- 0.0
- 0.0
- 0.0
- 0.0
- 0.0
- 0.0
- 0.0
linear_acceleration:
  x: 0.01243498043722956
  y: 0.018759485297472147
  z: 10.755384453670185
linear_acceleration_covariance:
- 0.0
- 0.0
- 0.0
- 0.0
- 0.0
- 0.0
- 0.0
- 0.0
- 0.0
---
header:
  stamp:
    sec: 314
    nanosec: 144000000
  frame_id: base_link
orientation:
  x: -4.38288533116549e-06
  y: -6.651790146077304e-06
  z: -0.08223919368784928
  w: 0.996612620308471
orientation_covariance:
- 0.0
- 0.0
- 0.0
- 0.0
- 0.0
- 0.0
- 0.0
- 0.0
- 0.0
angular_velocity:
  x: -0.022651895412804064
  y: -0.02429975238291844
  z: -0.003269071665328767
angular_velocity_covariance:
- 0.0
- 0.0
- 0.0
- 0.0
- 0.0
- 0.0
- 0.0
- 0.0
- 0.0
linear_acceleration:
  x: -0.1216161774758684
  y: 0.1053563816290783
  z: 7.7595203582877925
linear_acceleration_covariance:
- 0.0
- 0.0
- 0.0
- 0.0
- 0.0
- 0.0
- 0.0
- 0.0
- 0.0
---
header:
  stamp:
    sec: 314
    nanosec: 149000000
  frame_id: base_link
orientation:
  x: 7.90431840085397e-06
  y: 4.525442718145999e-06
  z: -0.08224479188793672
  w: 0.996612158326574
orientation_covariance:
- 0.0
- 0.0
- 0.0
- 0.0
- 0.0
- 0.0
- 0.0
- 0.0
- 0.0
angular_velocity:
  x: 0.014841919090178561
  y: 0.010162963913623332
  z: -0.0019409760797393513
angular_velocity_covariance:
- 0.0
- 0.0
- 0.0
- 0.0
- 0.0
- 0.0
- 0.0
- 0.0
- 0.0
linear_acceleration:
  x: 0.10916449395427692
  y: -0.12397934952874129
  z: 10.885155868435922
linear_acceleration_covariance:
- 0.0
- 0.0
- 0.0
- 0.0
- 0.0
- 0.0
- 0.0
- 0.0
- 0.0
---
header:
  stamp:
    sec: 314
    nanosec: 154000000
  frame_id: base_link
orientation:
  x: 7.904749774725744e-06
  y: 4.525434963037412e-06
  z: -0.08225201885083357
  w: 0.9966115618996187
orientation_covariance:
- 0.0
- 0.0
- 0.0
- 0.0
- 0.0
- 0.0
- 0.0
- 0.0
- 0.0
angular_velocity:
  x: 0.007808482663799779
  y: 0.014136716689147023
  z: -0.0020412724863913853
angular_velocity_covariance:
- 0.0
- 0.0
- 0.0
- 0.0
- 0.0
- 0.0
- 0.0
- 0.0
- 0.0
linear_acceleration:
  x: 0.012330376553603742
  y: 0.01894609034363008
  z: 10.75523513038784
linear_acceleration_covariance:
- 0.0
- 0.0
- 0.0
- 0.0
- 0.0
- 0.0
- 0.0
- 0.0
- 0.0
---
header:
  stamp:
    sec: 314
    nanosec: 159000000
  frame_id: base_link
orientation:
  x: -4.380794232300746e-06
  y: -6.651529321742627e-06
  z: -0.08225726117836817
  w: 0.9966111292374772
orientation_covariance:
- 0.0
- 0.0
- 0.0
- 0.0
- 0.0
- 0.0
- 0.0
- 0.0
- 0.0
angular_velocity:
  x: -0.022649458518840114
  y: -0.024299420238102134
  z: -0.0032689183286795263
angular_velocity_covariance:
- 0.0
- 0.0
- 0.0
- 0.0
- 0.0
- 0.0
- 0.0
- 0.0
- 0.0
linear_acceleration:
  x: -0.12162206775657246
  y: 0.10531983898211363
  z: 7.759650554376403
linear_acceleration_covariance:
- 0.0
- 0.0
- 0.0
- 0.0
- 0.0
- 0.0
- 0.0
- 0.0
- 0.0
---
header:
  stamp:
    sec: 314
    nanosec: 164000000
  frame_id: base_link
orientation:
  x: 7.905434712854675e-06
  y: 4.5254466057230895e-06
  z: -0.08226285873782944
  w: 0.9966106672062588
orientation_covariance:
- 0.0
- 0.0
- 0.0
- 0.0
- 0.0
- 0.0
- 0.0
- 0.0
- 0.0
angular_velocity:
  x: 0.014842740788073861
  y: 0.01016261611701479
  z: -0.0019402744139785189
angular_velocity_covariance:
- 0.0
- 0.0
- 0.0
- 0.0
- 0.0
- 0.0
- 0.0
- 0.0
- 0.0
linear_acceleration:
  x: 0.10916027846171514
  y: -0.12397940411009736
  z: 10.885175428496174
linear_acceleration_covariance:
- 0.0
- 0.0
- 0.0
- 0.0
- 0.0
- 0.0
- 0.0
- 0.0
- 0.0
---
header:
  stamp:
    sec: 314
    nanosec: 169000000
  frame_id: base_link
orientation:
  x: 7.905916376610048e-06
  y: 4.525469801556154e-06
  z: -0.08227008492453193
  w: 0.9966100707114728
orientation_covariance:
- 0.0
- 0.0
- 0.0
- 0.0
- 0.0
- 0.0
- 0.0
- 0.0
- 0.0
angular_velocity:
  x: 0.007805947574335118
  y: 0.014136499867418606
  z: -0.002041339636336403
angular_velocity_covariance:
- 0.0
- 0.0
- 0.0
- 0.0
- 0.0
- 0.0
- 0.0
- 0.0
- 0.0
linear_acceleration:
  x: 0.012331684436443462
  y: 0.018967951089372978
  z: 10.755089345347203
linear_acceleration_covariance:
- 0.0
- 0.0
- 0.0
- 0.0
- 0.0
- 0.0
- 0.0
- 0.0
- 0.0
---
header:
  stamp:
    sec: 314
    nanosec: 174000000
  frame_id: base_link
orientation:
  x: -4.37921497476832e-06
  y: -6.65097261471927e-06
  z: -0.0822753267771452
  w: 0.996609637992881
orientation_covariance:
- 0.0
- 0.0
- 0.0
- 0.0
- 0.0
- 0.0
- 0.0
- 0.0
- 0.0
angular_velocity:
  x: -0.02264832898313948
  y: -0.02429875755062454
  z: -0.003268791594986906
angular_velocity_covariance:
- 0.0
- 0.0
- 0.0
- 0.0
- 0.0
- 0.0
- 0.0
- 0.0
- 0.0
linear_acceleration:
  x: -0.12162391953918496
  y: 0.10529368634810418
  z: 7.7597733016238175
linear_acceleration_covariance:
- 0.0
- 0.0
- 0.0
- 0.0
- 0.0
- 0.0
- 0.0
- 0.0
- 0.0
---
header:
  stamp:
    sec: 314
    nanosec: 179000000
  frame_id: base_link
orientation:
  x: 7.906676044714925e-06
  y: 4.525527589471213e-06
  z: -0.08228092354111331
  w: 0.9966091759251596
orientation_covariance:
- 0.0
- 0.0
- 0.0
- 0.0
- 0.0
- 0.0
- 0.0
- 0.0
- 0.0
angular_velocity:
  x: 0.014843834480245706
  y: 0.010162439668713052
  z: -0.001939545272472176
angular_velocity_covariance:
- 0.0
- 0.0
- 0.0
- 0.0
- 0.0
- 0.0
- 0.0
- 0.0
- 0.0
linear_acceleration:
  x: 0.10915548940094062
  y: -0.12398473227704808
  z: 10.885199041771752
linear_acceleration_covariance:
- 0.0
- 0.0
- 0.0
- 0.0
- 0.0
- 0.0
- 0.0
- 0.0
- 0.0
---
header:
  stamp:
    sec: 314
    nanosec: 184000000
  frame_id: base_link
orientation:
  x: 9.20497449322028e-08
  y: 7.232231361179317e-08
  z: -0.08228718225742937
  w: 0.996608659221923
orientation_covariance:
- 0.0
- 0.0
- 0.0
- 0.0
- 0.0
- 0.0
- 0.0
- 0.0
- 0.0
angular_velocity:
  x: 0.007804448687337939
  y: 0.014135798663870953
  z: -0.002041135836010506
angular_velocity_covariance:
- 0.0
- 0.0
- 0.0
- 0.0
- 0.0
- 0.0
- 0.0
- 0.0
- 0.0
linear_acceleration:
  x: 0.012438919437288965
  y: 0.018825095935953405
  z: 10.754947054743095
linear_acceleration_covariance:
- 0.0
- 0.0
- 0.0
- 0.0
- 0.0
- 0.0
- 0.0
- 0.0
- 0.0
---
header:
  stamp:
    sec: 314
    nanosec: 189000000
  frame_id: base_link
orientation:
  x: -4.378145205320416e-06
  y: -6.6501235304969336e-06
  z: -0.08229339013020068
  w: 0.9966081466040132
orientation_covariance:
- 0.0
- 0.0
- 0.0
- 0.0
- 0.0
- 0.0
- 0.0
- 0.0
- 0.0
angular_velocity:
  x: -0.022648496976386497
  y: -0.024297768675369712
  z: -0.0032686904463402116
angular_velocity_covariance:
- 0.0
- 0.0
- 0.0
- 0.0
- 0.0
- 0.0
- 0.0
- 0.0
- 0.0
linear_acceleration:
  x: -0.12162176235699806
  y: 0.1052778532780947
  z: 7.7598887324423345
linear_acceleration_covariance:
- 0.0
- 0.0
- 0.0
- 0.0
- 0.0
- 0.0
- 0.0
- 0.0
- 0.0
---
header:
  stamp:
    sec: 314
    nanosec: 194000000
  frame_id: base_link
orientation:
  x: -4.377859065313682e-06
  y: -6.64970302535654e-06
  z: -0.08230061476369308
  w: 0.9966075500146153
orientation_covariance:
- 0.0
- 0.0
- 0.0
- 0.0
- 0.0
- 0.0
- 0.0
- 0.0
- 0.0
angular_velocity:
  x: -0.022648924441532017
  y: -0.024297283049101663
  z: -0.003268656877763981
angular_velocity_covariance:
- 0.0
- 0.0
- 0.0
- 0.0
- 0.0
- 0.0
- 0.0
- 0.0
- 0.0
linear_acceleration:
  x: 0.00012957609101459057
  y: -7.079760523314452e-05
  z: 9.80000900214272
linear_acceleration_covariance:
- 0.0
- 0.0
- 0.0
- 0.0
- 0.0
- 0.0
- 0.0
- 0.0
- 0.0
---
header:
  stamp:
    sec: 314
    nanosec: 199000000
  frame_id: base_link
orientation:
  x: 7.908619186798601e-06
  y: 4.525768485412623e-06
  z: -0.0823062101563075
  w: 0.9966070879171375
orientation_covariance:
- 0.0
- 0.0
- 0.0
- 0.0
- 0.0
- 0.0
- 0.0
- 0.0
- 0.0
angular_velocity:
  x: 0.0078039554034350055
  y: 0.014134574059674018
  z: -0.0020410542578398186
angular_velocity_covariance:
- 0.0
- 0.0
- 0.0
- 0.0
- 0.0
- 0.0
- 0.0
- 0.0
- 0.0
linear_acceleration:
  x: 0.15200743484320442
  y: -0.13147339640839473
  z: 12.35002553819245
linear_acceleration_covariance:
- 0.0
- 0.0
- 0.0
- 0.0
- 0.0
- 0.0
- 0.0
- 0.0
- 0.0
---
header:
  stamp:
    sec: 314
    nanosec: 204000000
  frame_id: base_link
orientation:
  x: -4.3775806746259e-06
  y: -6.648986667573874e-06
  z: -0.08231145088550505
  w: 0.9966066551000706
orientation_covariance:
- 0.0
- 0.0
- 0.0
- 0.0
- 0.0
- 0.0
- 0.0
- 0.0
- 0.0
angular_velocity:
  x: -0.02264994827738773
  y: -0.024296459436412572
  z: -0.003268613631187554
angular_velocity_covariance:
- 0.0
- 0.0
- 0.0
- 0.0
- 0.0
- 0.0
- 0.0
- 0.0
- 0.0
linear_acceleration:
  x: -0.12161527808909289
  y: 0.10527248066403078
  z: 7.76000014163784
linear_acceleration_covariance:
- 0.0
- 0.0
- 0.0
- 0.0
- 0.0
- 0.0
- 0.0
- 0.0
- 0.0
---
header:
  stamp:
    sec: 314
    nanosec: 209000000
  frame_id: base_link
orientation:
  x: 7.909523642244042e-06
  y: 4.525916531720439e-06
  z: -0.08231704559931251
  w: 0.9966061929973926
orientation_covariance:
- 0.0
- 0.0
- 0.0
- 0.0
- 0.0
- 0.0
- 0.0
- 0.0
- 0.0
angular_velocity:
  x: 0.007804146800746894
  y: 0.01413361512781304
  z: -0.002040861176413872
angular_velocity_covariance:
- 0.0
- 0.0
- 0.0
- 0.0
- 0.0
- 0.0
- 0.0
- 0.0
- 0.0
linear_acceleration:
  x: 0.1519981562975717
  y: -0.13147733665316924
  z: 12.349944872734541
linear_acceleration_covariance:
- 0.0
- 0.0
- 0.0
- 0.0
- 0.0
- 0.0
- 0.0
- 0.0
- 0.0
---
header:
  stamp:
    sec: 314
    nanosec: 214000000
  frame_id: base_link
orientation:
  x: 7.910150041747615e-06
  y: 4.52602994459861e-06
  z: -0.08232426861302117
  w: 0.9966055963691334
orientation_covariance:
- 0.0
- 0.0
- 0.0
- 0.0
- 0.0
- 0.0
- 0.0
- 0.0
- 0.0
angular_velocity:
  x: 0.014847557434234049
  y: 0.010162707637724781
  z: -0.0019376857388400765
angular_velocity_covariance:
- 0.0
- 0.0
- 0.0
- 0.0
- 0.0
- 0.0
- 0.0
- 0.0
- 0.0
linear_acceleration:
  x: -0.008993127902507954
  y: -0.01332776325705485
  z: 9.11808949043319
linear_acceleration_covariance:
- 0.0
- 0.0
- 0.0
- 0.0
- 0.0
- 0.0
- 0.0
- 0.0
- 0.0
---
header:
  stamp:
    sec: 314
    nanosec: 219000000
  frame_id: base_link
orientation:
  x: 9.344359074522064e-08
  y: 7.318582839900371e-08
  z: -0.08233052549809211
  w: 0.9966050795431428
orientation_covariance:
- 0.0
- 0.0
- 0.0
- 0.0
- 0.0
- 0.0
- 0.0
- 0.0
- 0.0
angular_velocity:
  x: -0.022652568614662496
  y: -0.024294908806630884
  z: -0.003268690184534266
angular_velocity_covariance:
- 0.0
- 0.0
- 0.0
- 0.0
- 0.0
- 0.0
- 0.0
- 0.0
- 0.0
linear_acceleration:
  x: -0.13659289354628157
  y: 0.15523134863276675
  z: 8.443433381878554
linear_acceleration_covariance:
- 0.0
- 0.0
- 0.0
- 0.0
- 0.0
- 0.0
- 0.0
- 0.0
- 0.0
---
header:
  stamp:
    sec: 314
    nanosec: 224000000
  frame_id: base_link
orientation:
  x: -4.377627156424007e-06
  y: -6.646922547986634e-06
  z: -0.08233673091328686
  w: 0.9966045668564679
orientation_covariance:
- 0.0
- 0.0
- 0.0
- 0.0
- 0.0
- 0.0
- 0.0
- 0.0
- 0.0
angular_velocity:
  x: 0.01484864664217075
  y: 0.010163017330203044
  z: -0.001937327611681853
angular_velocity_covariance:
- 0.0
- 0.0
- 0.0
- 0.0
- 0.0
- 0.0
- 0.0
- 0.0
- 0.0
linear_acceleration:
  x: 0.10940301430845047
  y: -0.12427757776563557
  z: 10.88528797841176
linear_acceleration_covariance:
- 0.0
- 0.0
- 0.0
- 0.0
- 0.0
- 0.0
- 0.0
- 0.0
- 0.0
---
header:
  stamp:
    sec: 314
    nanosec: 229000000
  frame_id: base_link
orientation:
  x: 9.377225725834705e-08
  y: 7.340285533483784e-08
  z: -0.08234135847007996
  w: 0.9966041845613972
orientation_covariance:
- 0.0
- 0.0
- 0.0
- 0.0
- 0.0
- 0.0
- 0.0
- 0.0
- 0.0
angular_velocity:
  x: 0.007805985696153611
  y: 0.01413072649598344
  z: -0.0020400914941661923
angular_velocity_covariance:
- 0.0
- 0.0
- 0.0
- 0.0
- 0.0
- 0.0
- 0.0
- 0.0
- 0.0
linear_acceleration:
  x: 0.012411393675717792
  y: 0.018845136505517574
  z: 10.754527291053893
linear_acceleration_covariance:
- 0.0
- 0.0
- 0.0
- 0.0
- 0.0
- 0.0
- 0.0
- 0.0
- 0.0
---
header:
  stamp:
    sec: 314
    nanosec: 234000000
  frame_id: base_link
orientation:
  x: -4.3779410877447585e-06
  y: -6.645873226508063e-06
  z: -0.0823475632065235
  w: 0.9966036718628993
orientation_covariance:
- 0.0
- 0.0
- 0.0
- 0.0
- 0.0
- 0.0
- 0.0
- 0.0
- 0.0
angular_velocity:
  x: -0.022656622640728902
  y: -0.02429291016759826
  z: -0.0032685268992516153
angular_velocity_covariance:
- 0.0
- 0.0
- 0.0
- 0.0
- 0.0
- 0.0
- 0.0
- 0.0
- 0.0
linear_acceleration:
  x: -0.12159067919476775
  y: 0.1052917559701189
  z: 7.760202505990788
linear_acceleration_covariance:
- 0.0
- 0.0
- 0.0
- 0.0
- 0.0
- 0.0
- 0.0
- 0.0
- 0.0
---
header:
  stamp:
    sec: 314
    nanosec: 239000000
  frame_id: base_link
orientation:
  x: -1.4806243770709156e-06
  y: -2.951148692895797e-05
  z: -0.08234834310125942
  w: 0.9966036070150245
orientation_covariance:
- 0.0
- 0.0
- 0.0
- 0.0
- 0.0
- 0.0
- 0.0
- 0.0
- 0.0
angular_velocity:
  x: 0.0028623976491577406
  y: -0.032375207985846
  z: 0.006387734271800598
angular_velocity_covariance:
- 0.0
- 0.0
- 0.0
- 0.0
- 0.0
- 0.0
- 0.0
- 0.0
- 0.0
linear_acceleration:
  x: 17.02417099492621
  y: -0.5173559621143107
  z: 12.29421282421638
linear_acceleration_covariance:
- 0.0
- 0.0
- 0.0
- 0.0
- 0.0
- 0.0
- 0.0
- 0.0
- 0.0
---
header:
  stamp:
    sec: 314
    nanosec: 244000000
  frame_id: base_link
orientation:
  x: -4.284461502735143e-06
  y: -3.3824255413481706e-05
  z: -0.08234716723270714
  w: 0.996603704029998
orientation_covariance:
- 0.0
- 0.0
- 0.0
- 0.0
- 0.0
- 0.0
- 0.0
- 0.0
- 0.0
angular_velocity:
  x: -0.00020390518206894097
  y: 0.025923859782473364
  z: -0.0011052284302954097
angular_velocity_covariance:
- 0.0
- 0.0
- 0.0
- 0.0
- 0.0
- 0.0
- 0.0
- 0.0
- 0.0
linear_acceleration:
  x: 14.144777610972284
  y: 0.8708986484596066
  z: 7.095408907192479
linear_acceleration_covariance:
- 0.0
- 0.0
- 0.0
- 0.0
- 0.0
- 0.0
- 0.0
- 0.0
- 0.0
---
header:
  stamp:
    sec: 314
    nanosec: 249000000
  frame_id: base_link
orientation:
  x: -1.6143500772368861e-06
  y: -1.450769344991941e-05
  z: -0.08235476042791336
  w: 0.9966030770681884
orientation_covariance:
- 0.0
- 0.0
- 0.0
- 0.0
- 0.0
- 0.0
- 0.0
- 0.0
- 0.0
angular_velocity:
  x: 0.00020374593591064192
  y: -0.04444827085285123
  z: -0.004168055194422928
angular_velocity_covariance:
- 0.0
- 0.0
- 0.0
- 0.0
- 0.0
- 0.0
- 0.0
- 0.0
- 0.0
linear_acceleration:
  x: 2.665894772052279
  y: 0.19814493793910912
  z: 10.65515488488953
linear_acceleration_covariance:
- 0.0
- 0.0
- 0.0
- 0.0
- 0.0
- 0.0
- 0.0
- 0.0
- 0.0
---
header:
  stamp:
    sec: 314
    nanosec: 254000000
  frame_id: base_link
orientation:
  x: -1.5179509530027441e-06
  y: -1.2470507628206759e-05
  z: -0.08234986313663745
  w: 0.9966034817737491
orientation_covariance:
- 0.0
- 0.0
- 0.0
- 0.0
- 0.0
- 0.0
- 0.0
- 0.0
- 0.0
angular_velocity:
  x: -0.004899983157254386
  y: -0.027174724379949337
  z: 0.0017336859990959139
angular_velocity_covariance:
- 0.0
- 0.0
- 0.0
- 0.0
- 0.0
- 0.0
- 0.0
- 0.0
- 0.0
linear_acceleration:
  x: 0.0337975062629203
  y: -0.11899743594202
  z: 8.83360500777774
linear_acceleration_covariance:
- 0.0
- 0.0
- 0.0
- 0.0
- 0.0
- 0.0
- 0.0
- 0.0
- 0.0
---
header:
  stamp:
    sec: 314
    nanosec: 259000000
  frame_id: base_link
orientation:
  x: 1.5141348966775045e-05
  y: -1.1837853676383947e-06
  z: -0.08234386327919344
  w: 0.9966039774903548
orientation_covariance:
- 0.0
- 0.0
- 0.0
- 0.0
- 0.0
- 0.0
- 0.0
- 0.0
- 0.0
angular_velocity:
  x: 0.05035132908049328
  y: -0.0014610051368178561
  z: 0.009840014915708835
angular_velocity_covariance:
- 0.0
- 0.0
- 0.0
- 0.0
- 0.0
- 0.0
- 0.0
- 0.0
- 0.0
linear_acceleration:
  x: -0.1867027676978066
  y: -0.5376156197867278
  z: 10.787535845233789
linear_acceleration_covariance:
- 0.0
- 0.0
- 0.0
- 0.0
- 0.0
- 0.0
- 0.0
- 0.0
- 0.0
---
header:
  stamp:
    sec: 314
    nanosec: 264000000
  frame_id: base_link
orientation:
  x: -3.524206435799769e-08
  y: 5.28743183579622e-07
  z: -0.08234565905874713
  w: 0.9966038292289969
orientation_covariance:
- 0.0
- 0.0
- 0.0
- 0.0
- 0.0
- 0.0
- 0.0
- 0.0
- 0.0
angular_velocity:
  x: -0.025890746533040947
  y: 0.0017828841515281938
  z: -0.006602011884779554
angular_velocity_covariance:
- 0.0
- 0.0
- 0.0
- 0.0
- 0.0
- 0.0
- 0.0
- 0.0
- 0.0
linear_acceleration:
  x: -0.19801848505826722
  y: 0.48526380339451136
  z: 9.182230359988845
linear_acceleration_covariance:
- 0.0
- 0.0
- 0.0
- 0.0
- 0.0
- 0.0
- 0.0
- 0.0
- 0.0
---
header:
  stamp:
    sec: 314
    nanosec: 269000000
  frame_id: base_link
orientation:
  x: 2.2303826760228056e-06
  y: 1.3259672788888317e-06
  z: -0.08234322520167078
  w: 0.9966040303233047
orientation_covariance:
- 0.0
- 0.0
- 0.0
- 0.0
- 0.0
- 0.0
- 0.0
- 0.0
- 0.0
angular_velocity:
  x: 0.004296853317006104
  y: 0.0025941627905249043
  z: 0.003513872563351955
angular_velocity_covariance:
- 0.0
- 0.0
- 0.0
- 0.0
- 0.0
- 0.0
- 0.0
- 0.0
- 0.0
linear_acceleration:
  x: -0.08635126719713308
  y: -0.27644326633388244
  z: 10.626348358202087
linear_acceleration_covariance:
- 0.0
- 0.0
- 0.0
- 0.0
- 0.0
- 0.0
- 0.0
- 0.0
- 0.0
---
header:
  stamp:
    sec: 314
    nanosec: 274000000
  frame_id: base_link
orientation:
  x: -4.306190481583216e-06
  y: -2.6303153261246046e-05
  z: -0.08231175126621604
  w: 0.9966066299664524
orientation_covariance:
- 0.0
- 0.0
- 0.0
- 0.0
- 0.0
- 0.0
- 0.0
- 0.0
- 0.0
angular_velocity:
  x: -0.0017019007770475983
  y: -0.02030974529290834
  z: 0.008702603764712186
angular_velocity_covariance:
- 0.0
- 0.0
- 0.0
- 0.0
- 0.0
- 0.0
- 0.0
- 0.0
- 0.0
linear_acceleration:
  x: 26.538328489466966
  y: 0.019630272672500237
  z: 11.137517175952668
linear_acceleration_covariance:
- 0.0
- 0.0
- 0.0
- 0.0
- 0.0
- 0.0
- 0.0
- 0.0
- 0.0
---
header:
  stamp:
    sec: 314
    nanosec: 279000000
  frame_id: base_link
orientation:
  x: -2.195332965473386e-06
  y: 1.4718965089479422e-05
  z: -0.08229850506240778
  w: 0.9966077241538045
orientation_covariance:
- 0.0
- 0.0
- 0.0
- 0.0
- 0.0
- 0.0
- 0.0
- 0.0
- 0.0
angular_velocity:
  x: -5.2142608031055006e-05
  y: 0.04861214921653848
  z: 0.005010824551329106
angular_velocity_covariance:
- 0.0
- 0.0
- 0.0
- 0.0
- 0.0
- 0.0
- 0.0
- 0.0
- 0.0
linear_acceleration:
  x: 11.368355255584321
  y: 0.6577711956785904
  z: 6.311406641232679
linear_acceleration_covariance:
- 0.0
- 0.0
- 0.0
- 0.0
- 0.0
- 0.0
- 0.0
- 0.0
- 0.0
---
header:
  stamp:
    sec: 314
    nanosec: 284000000
  frame_id: base_link
orientation:
  x: -2.717306354787551e-06
  y: -1.793000005226519e-07
  z: -0.08226198113149996
  w: 0.9966107396837066
orientation_covariance:
- 0.0
- 0.0
- 0.0
- 0.0
- 0.0
- 0.0
- 0.0
- 0.0
- 0.0
angular_velocity:
  x: -0.030610688458769186
  y: -0.007662241481886725
  z: 0.010626492781144496
angular_velocity_covariance:
- 0.0
- 0.0
- 0.0
- 0.0
- 0.0
- 0.0
- 0.0
- 0.0
- 0.0
linear_acceleration:
  x: 1.18409974909635
  y: 0.5422590496458675
  z: 11.41334928045105
linear_acceleration_covariance:
- 0.0
- 0.0
- 0.0
- 0.0
- 0.0
- 0.0
- 0.0
- 0.0
- 0.0
---
header:
  stamp:
    sec: 314
    nanosec: 289000000
  frame_id: base_link
orientation:
  x: 1.5597391911243757e-05
  y: -2.0705877359818423e-06
  z: -0.08223633654881568
  w: 0.996612855979424
orientation_covariance:
- 0.0
- 0.0
- 0.0
- 0.0
- 0.0
- 0.0
- 0.0
- 0.0
- 0.0
angular_velocity:
  x: 0.031857254774529505
  y: -0.0020320878913187
  z: 0.01882785375980969
angular_velocity_covariance:
- 0.0
- 0.0
- 0.0
- 0.0
- 0.0
- 0.0
- 0.0
- 0.0
- 0.0
linear_acceleration:
  x: 0.4544116860048717
  y: -0.6499404485670882
  z: 9.572065836602324
linear_acceleration_covariance:
- 0.0
- 0.0
- 0.0
- 0.0
- 0.0
- 0.0
- 0.0
- 0.0
- 0.0
---
header:
  stamp:
    sec: 314
    nanosec: 294000000
  frame_id: base_link
orientation:
  x: 1.0166118110553682e-05
  y: 7.036755306506937e-06
  z: -0.08220159144770076
  w: 0.9966157224379915
orientation_covariance:
- 0.0
- 0.0
- 0.0
- 0.0
- 0.0
- 0.0
- 0.0
- 0.0
- 0.0
angular_velocity:
  x: 0.0002481751449059196
  y: -0.00037960132003486626
  z: 0.013113300769958942
angular_velocity_covariance:
- 0.0
- 0.0
- 0.0
- 0.0
- 0.0
- 0.0
- 0.0
- 0.0
- 0.0
linear_acceleration:
  x: 0.0054494023907037566
  y: -0.025248998543079333
  z: 10.891743629509312
linear_acceleration_covariance:
- 0.0
- 0.0
- 0.0
- 0.0
- 0.0
- 0.0
- 0.0
- 0.0
- 0.0
---
header:
  stamp:
    sec: 314
    nanosec: 299000000
  frame_id: base_link
orientation:
  x: -1.3151582769076872e-05
  y: 2.7207519261515695e-06
  z: -0.08218867052592625
  w: 0.996616788066915
orientation_covariance:
- 0.0
- 0.0
- 0.0
- 0.0
- 0.0
- 0.0
- 0.0
- 0.0
- 0.0
angular_velocity:
  x: -0.0284191365046903
  y: 0.002235304694997919
  z: 0.003842267858568421
angular_velocity_covariance:
- 0.0
- 0.0
- 0.0
- 0.0
- 0.0
- 0.0
- 0.0
- 0.0
- 0.0
linear_acceleration:
  x: -0.15710146448355472
  y: -0.022927914332067093
  z: 10.80824449890696
linear_acceleration_covariance:
- 0.0
- 0.0
- 0.0
- 0.0
- 0.0
- 0.0
- 0.0
- 0.0
- 0.0
---
header:
  stamp:
    sec: 314
    nanosec: 304000000
  frame_id: base_link
orientation:
  x: -7.136719654819414e-06
  y: -6.629170887024626e-06
  z: -0.08217869930138581
  w: 0.9966176103632997
orientation_covariance:
- 0.0
- 0.0
- 0.0
- 0.0
- 0.0
- 0.0
- 0.0
- 0.0
- 0.0
angular_velocity:
  x: -0.019955727432674614
  y: -0.01915543909212582
  z: 0.0012386580311417748
angular_velocity_covariance:
- 0.0
- 0.0
- 0.0
- 0.0
- 0.0
- 0.0
- 0.0
- 0.0
- 0.0
linear_acceleration:
  x: -0.16676350220750452
  y: -0.07987509250201463
  z: 7.349252079278584
linear_acceleration_covariance:
- 0.0
- 0.0
- 0.0
- 0.0
- 0.0
- 0.0
- 0.0
- 0.0
- 0.0
---
header:
  stamp:
    sec: 314
    nanosec: 309000000
  frame_id: base_link
orientation:
  x: -4.484436430935631e-06
  y: -1.1824610618916008e-05
  z: -0.08213794768698843
  w: 0.9966209697722791
orientation_covariance:
- 0.0
- 0.0
- 0.0
- 0.0
- 0.0
- 0.0
- 0.0
- 0.0
- 0.0
angular_velocity:
  x: 9.084926817817503e-06
  y: 0.00659011783268433
  z: 0.006455077985755626
angular_velocity_covariance:
- 0.0
- 0.0
- 0.0
- 0.0
- 0.0
- 0.0
- 0.0
- 0.0
- 0.0
linear_acceleration:
  x: 25.759336734963494
  y: 0.058170352441008544
  z: 10.910611562254253
linear_acceleration_covariance:
- 0.0
- 0.0
- 0.0
- 0.0
- 0.0
- 0.0
- 0.0
- 0.0
- 0.0
---
header:
  stamp:
    sec: 314
    nanosec: 314000000
  frame_id: base_link
orientation:
  x: -2.416166229272299e-07
  y: -7.77407127949764e-08
  z: -0.0821217710732491
  w: 0.9966223029391468
orientation_covariance:
- 0.0
- 0.0
- 0.0
- 0.0
- 0.0
- 0.0
- 0.0
- 0.0
- 0.0
angular_velocity:
  x: -0.0037980636853756026
  y: -0.002663066618217298
  z: 0.00850443114348807
angular_velocity_covariance:
- 0.0
- 0.0
- 0.0
- 0.0
- 0.0
- 0.0
- 0.0
- 0.0
- 0.0
linear_acceleration:
  x: 5.646311243103961
  y: 0.30921950758350114
  z: 10.02475035931211
linear_acceleration_covariance:
- 0.0
- 0.0
- 0.0
- 0.0
- 0.0
- 0.0
- 0.0
- 0.0
- 0.0
---
header:
  stamp:
    sec: 314
    nanosec: 319000000
  frame_id: base_link
orientation:
  x: -4.628215524744553e-07
  y: -6.592286362497104e-07
  z: -0.08210781883193612
  w: 0.9966234525065187
orientation_covariance:
- 0.0
- 0.0
- 0.0
- 0.0
- 0.0
- 0.0
- 0.0
- 0.0
- 0.0
angular_velocity:
  x: -0.01518600844664083
  y: 0.009854178633467797
  z: 0.006645814546868841
angular_velocity_covariance:
- 0.0
- 0.0
- 0.0
- 0.0
- 0.0
- 0.0
- 0.0
- 0.0
- 0.0
linear_acceleration:
  x: 0.9725165196554482
  y: -0.038710748644019306
  z: 11.10591264543135
linear_acceleration_covariance:
- 0.0
- 0.0
- 0.0
- 0.0
- 0.0
- 0.0
- 0.0
- 0.0
- 0.0
---
header:
  stamp:
    sec: 314
    nanosec: 324000000
  frame_id: base_link
orientation:
  x: -4.67441307673179e-06
  y: -3.0625321798053423e-06
  z: -0.08208573513478114
  w: 0.9966252716322989
orientation_covariance:
- 0.0
- 0.0
- 0.0
- 0.0
- 0.0
- 0.0
- 0.0
- 0.0
- 0.0
angular_velocity:
  x: -0.009274315225424438
  y: -0.01214881866111322
  z: 0.004779382934801856
angular_velocity_covariance:
- 0.0
- 0.0
- 0.0
- 0.0
- 0.0
- 0.0
- 0.0
- 0.0
- 0.0
linear_acceleration:
  x: -0.22872317605573578
  y: -0.19008484491402936
  z: 9.837355660251326
linear_acceleration_covariance:
- 0.0
- 0.0
- 0.0
- 0.0
- 0.0
- 0.0
- 0.0
- 0.0
- 0.0
---
header:
  stamp:
    sec: 314
    nanosec: 329000000
  frame_id: base_link
orientation:
  x: -7.636115244238055e-08
  y: -2.0066495280681608e-07
  z: -0.08207305173266284
  w: 0.9966263162184918
orientation_covariance:
- 0.0
- 0.0
- 0.0
- 0.0
- 0.0
- 0.0
- 0.0
- 0.0
- 0.0
angular_velocity:
  x: -0.00040631298228400656
  y: 0.018504563587426612
  z: 0.005304484730142942
angular_velocity_covariance:
- 0.0
- 0.0
- 0.0
- 0.0
- 0.0
- 0.0
- 0.0
- 0.0
- 0.0
linear_acceleration:
  x: 0.07669993265932254
  y: -0.2903322926837711
  z: 9.462585609282463
linear_acceleration_covariance:
- 0.0
- 0.0
- 0.0
- 0.0
- 0.0
- 0.0
- 0.0
- 0.0
- 0.0
---
header:
  stamp:
    sec: 314
    nanosec: 334000000
  frame_id: base_link
orientation:
  x: -2.5151339965615635e-07
  y: 2.450128486210887e-07
  z: -0.08206443476432723
  w: 0.9966270257958533
orientation_covariance:
- 0.0
- 0.0
- 0.0
- 0.0
- 0.0
- 0.0
- 0.0
- 0.0
- 0.0
angular_velocity:
  x: 0.011392811641170215
  y: -0.007654700095372498
  z: 0.006735629688329236
angular_velocity_covariance:
- 0.0
- 0.0
- 0.0
- 0.0
- 0.0
- 0.0
- 0.0
- 0.0
- 0.0
linear_acceleration:
  x: -0.03469796561030133
  y: -0.10787471682094285
  z: 8.914212102825733
linear_acceleration_covariance:
- 0.0
- 0.0
- 0.0
- 0.0
- 0.0
- 0.0
- 0.0
- 0.0
- 0.0
---
header:
  stamp:
    sec: 314
    nanosec: 339000000
  frame_id: base_link
orientation:
  x: -4.893660478005649e-06
  y: -5.761670247021612e-06
  z: -0.08205451479725108
  w: 0.9966278425491849
orientation_covariance:
- 0.0
- 0.0
- 0.0
- 0.0
- 0.0
- 0.0
- 0.0
- 0.0
- 0.0
angular_velocity:
  x: -0.020765861468754462
  y: -0.02226119438559792
  z: 0.0017991704786669888
angular_velocity_covariance:
- 0.0
- 0.0
- 0.0
- 0.0
- 0.0
- 0.0
- 0.0
- 0.0
- 0.0
linear_acceleration:
  x: -0.14595884670680925
  y: 0.10526592465938192
  z: 8.642409189978396
linear_acceleration_covariance:
- 0.0
- 0.0
- 0.0
- 0.0
- 0.0
- 0.0
- 0.0
- 0.0
- 0.0
---
header:
  stamp:
    sec: 314
    nanosec: 344000000
  frame_id: base_link
orientation:
  x: 7.384398437550469e-06
  y: 4.444322219516364e-06
  z: -0.08204893482702738
  w: 0.9966283019358165
orientation_covariance:
- 0.0
- 0.0
- 0.0
- 0.0
- 0.0
- 0.0
- 0.0
- 0.0
- 0.0
angular_velocity:
  x: 0.014016784851304817
  y: 0.010033499712280436
  z: 0.0018613547087092826
angular_velocity_covariance:
- 0.0
- 0.0
- 0.0
- 0.0
- 0.0
- 0.0
- 0.0
- 0.0
- 0.0
linear_acceleration:
  x: 0.1339465479013975
  y: -0.22244835450860556
  z: 10.965899915178479
linear_acceleration_covariance:
- 0.0
- 0.0
- 0.0
- 0.0
- 0.0
- 0.0
- 0.0
- 0.0
- 0.0
---
header:
  stamp:
    sec: 314
    nanosec: 349000000
  frame_id: base_link
orientation:
  x: 2.3408331471772265e-08
  y: 3.0998261689604096e-08
  z: -0.08204427770730291
  w: 0.996628685366564
orientation_covariance:
- 0.0
- 0.0
- 0.0
- 0.0
- 0.0
- 0.0
- 0.0
- 0.0
- 0.0
angular_velocity:
  x: 0.007723057613635679
  y: 0.014241143355358404
  z: 0.0020922019833387847
angular_velocity_covariance:
- 0.0
- 0.0
- 0.0
- 0.0
- 0.0
- 0.0
- 0.0
- 0.0
- 0.0
linear_acceleration:
  x: 0.03527505565512676
  y: -0.11299203709866074
  z: 10.75032516825615
linear_acceleration_covariance:
- 0.0
- 0.0
- 0.0
- 0.0
- 0.0
- 0.0
- 0.0
- 0.0
- 0.0
---
header:
  stamp:
    sec: 314
    nanosec: 354000000
  frame_id: base_link
orientation:
  x: -4.382451166624255e-06
  y: -6.776187475265975e-06
  z: -0.08204232280552519
  w: 0.9966288462630165
orientation_covariance:
- 0.0
- 0.0
- 0.0
- 0.0
- 0.0
- 0.0
- 0.0
- 0.0
- 0.0
angular_velocity:
  x: -0.022802355433953078
  y: -0.02449005713644451
  z: -0.0003626421062534521
angular_velocity_covariance:
- 0.0
- 0.0
- 0.0
- 0.0
- 0.0
- 0.0
- 0.0
- 0.0
- 0.0
linear_acceleration:
  x: -0.13423920029102426
  y: 0.060426976921001394
  z: 7.753838018133816
linear_acceleration_covariance:
- 0.0
- 0.0
- 0.0
- 0.0
- 0.0
- 0.0
- 0.0
- 0.0
- 0.0
---
header:
  stamp:
    sec: 314
    nanosec: 359000000
  frame_id: base_link
orientation:
  x: 7.990750982018233e-06
  y: 4.488845481848867e-06
  z: -0.08204210143489882
  w: 0.9966288644767137
orientation_covariance:
- 0.0
- 0.0
- 0.0
- 0.0
- 0.0
- 0.0
- 0.0
- 0.0
- 0.0
angular_velocity:
  x: 0.015093082819456122
  y: 0.01016669907721847
  z: -4.063544003533913e-05
angular_velocity_covariance:
- 0.0
- 0.0
- 0.0
- 0.0
- 0.0
- 0.0
- 0.0
- 0.0
- 0.0
linear_acceleration:
  x: 0.12833524532762214
  y: -0.18257483504428026
  z: 10.8785989901237
linear_acceleration_covariance:
- 0.0
- 0.0
- 0.0
- 0.0
- 0.0
- 0.0
- 0.0
- 0.0
- 0.0
---
header:
  stamp:
    sec: 314
    nanosec: 364000000
  frame_id: base_link
orientation:
  x: 6.156233435061849e-08
  y: 4.7024341629730255e-08
  z: -0.08204425971281304
  w: 0.9966286868479005
orientation_covariance:
- 0.0
- 0.0
- 0.0
- 0.0
- 0.0
- 0.0
- 0.0
- 0.0
- 0.0
angular_velocity:
  x: 0.007728229761143063
  y: 0.014336456068804649
  z: -0.0005017936199173892
angular_velocity_covariance:
- 0.0
- 0.0
- 0.0
- 0.0
- 0.0
- 0.0
- 0.0
- 0.0
- 0.0
linear_acceleration:
  x: 0.03331208640475783
  y: -0.01911935517321875
  z: 10.768043176823069
linear_acceleration_covariance:
- 0.0
- 0.0
- 0.0
- 0.0
- 0.0
- 0.0
- 0.0
- 0.0
- 0.0
---
header:
  stamp:
    sec: 314
    nanosec: 369000000
  frame_id: base_link
orientation:
  x: 6.74391115464709e-08
  y: 5.136509916154027e-08
  z: -0.08204826999530732
  w: 0.9966283567061345
orientation_covariance:
- 0.0
- 0.0
- 0.0
- 0.0
- 0.0
- 0.0
- 0.0
- 0.0
- 0.0
angular_velocity:
  x: -0.02281234255204602
  y: -0.02448779076647774
  z: -0.0023976783333958447
angular_velocity_covariance:
- 0.0
- 0.0
- 0.0
- 0.0
- 0.0
- 0.0
- 0.0
- 0.0
- 0.0
linear_acceleration:
  x: -0.12479938916037742
  y: 0.09462539688640777
  z: 7.751166348066686
linear_acceleration_covariance:
- 0.0
- 0.0
- 0.0
- 0.0
- 0.0
- 0.0
- 0.0
- 0.0
- 0.0
---
header:
  stamp:
    sec: 314
    nanosec: 374000000
  frame_id: base_link
orientation:
  x: 7.996163891025723e-06
  y: 4.491265584323835e-06
  z: -0.08205146731078305
  w: 0.9966280934370844
orientation_covariance:
- 0.0
- 0.0
- 0.0
- 0.0
- 0.0
- 0.0
- 0.0
- 0.0
- 0.0
angular_velocity:
  x: 0.015071636257648503
  y: 0.010147313407684037
  z: -0.0014268915491259782
angular_velocity_covariance:
- 0.0
- 0.0
- 0.0
- 0.0
- 0.0
- 0.0
- 0.0
- 0.0
- 0.0
linear_acceleration:
  x: 0.11734323983924624
  y: -0.14473239324209666
  z: 10.880537882017181
linear_acceleration_covariance:
- 0.0
- 0.0
- 0.0
- 0.0
- 0.0
- 0.0
- 0.0
- 0.0
- 0.0
---
header:
  stamp:
    sec: 314
    nanosec: 379000000
  frame_id: base_link
orientation:
  x: -4.2552038096703814e-08
  y: 1.0862064885157838e-08
  z: -0.08206066970538223
